,City,Country,Lat,Lng,Date,Max Temp,Humidity,Cloudiness,Wind Speed
0,Atuona,PF,-9.8,-139.03,2019-06-30T16:27:53Z,79.76,75,1,13.22
1,Rikitea,PF,-23.12,-134.97,2019-06-30T16:27:53Z,69.32,61,100,13.02
2,Poum,NC,-20.23,164.02,2019-06-30T16:27:53Z,72.92,80,8,13.42
3,Lebu,CL,-37.62,-73.65,2019-06-30T16:27:53Z,50.96,73,0,1.03
4,Ushuaia,AR,-54.81,-68.31,2019-06-30T16:27:53Z,30.2,80,0,9.17
5,Kapaa,US,22.08,-159.32,2019-06-30T16:27:54Z,78.8,74,40,12.75
6,Hithadhoo,MV,-0.6,73.08,2019-06-30T16:27:54Z,84.08,75,100,7.72
7,Tilichiki,RU,60.47,166.1,2019-06-30T16:27:54Z,43.4,97,100,2.82
8,Carballo,ES,43.21,-8.69,2019-06-30T16:27:54Z,72.0,88,90,6.93
9,Tuktoyaktuk,CA,69.44,-133.03,2019-06-30T16:27:54Z,39.2,80,75,4.7
10,Albany,AU,-35.02,117.88,2019-06-30T16:27:54Z,53.6,81,41,12.75
11,Waipawa,NZ,-39.94,176.59,2019-06-30T16:27:54Z,28.99,93,0,1.41
12,Yichang,CN,30.77,111.32,2019-06-30T16:27:54Z,65.0,68,17,4.65
13,Suaita,CO,6.1,-73.44,2019-06-30T16:27:55Z,74.54,52,78,3.4
14,Ribeira Grande,PT,38.52,-28.7,2019-06-30T16:27:55Z,71.6,73,75,13.87
15,Qaqortoq,GL,60.72,-46.03,2019-06-30T16:27:55Z,53.6,54,40,9.17
16,Upernavik,GL,72.79,-56.15,2019-06-30T16:27:55Z,39.98,80,41,9.24
17,Fuerte Olimpo,PY,-21.04,-57.87,2019-06-30T16:27:55Z,89.3,39,0,10.69
18,Noumea,NC,-22.28,166.46,2019-06-30T16:23:40Z,64.4,100,90,10.85
19,Castro,CL,-42.48,-73.76,2019-06-30T16:27:55Z,42.8,81,0,2.24
20,Oussouye,SN,12.49,-16.54,2019-06-30T16:27:56Z,96.8,47,75,6.93
21,Vao,NC,-22.67,167.48,2019-06-30T16:27:56Z,71.66,85,0,11.95
22,Kamnik,SI,46.23,14.61,2019-06-30T16:27:56Z,93.2,42,0,6.93
23,Sembakung,ID,3.82,117.25,2019-06-30T16:27:56Z,74.18,89,30,1.05
24,Sakaiminato,JP,35.55,133.23,2019-06-30T16:27:56Z,75.2,78,75,12.75
25,Port Pirie,AU,-33.18,138.01,2019-06-30T16:27:56Z,42.8,87,67,6.93
26,Kindu,CD,-2.95,25.92,2019-06-30T16:27:57Z,91.82,34,28,1.95
27,Cudahy,US,33.96,-118.19,2019-06-30T16:27:57Z,77.0,57,1,3.2
28,Kontagora,NG,10.4,5.47,2019-06-30T16:27:57Z,92.0,47,12,3.24
29,Ucluelet,CA,48.94,-125.55,2019-06-30T16:27:57Z,63.0,87,5,4.7
30,Port Alfred,ZA,-33.59,26.89,2019-06-30T16:27:57Z,61.0,91,32,3.0
31,Cam Ranh,VN,11.92,109.15,2019-06-30T16:27:57Z,82.4,74,75,1.12
32,Port Elizabeth,ZA,-33.92,25.57,2019-06-30T16:27:57Z,60.8,87,0,9.17
33,Peniche,PT,39.36,-9.38,2019-06-30T16:27:57Z,75.2,68,40,16.11
34,Breytovo,RU,58.3,37.86,2019-06-30T16:27:58Z,64.46,61,28,5.19
35,Jamestown,SH,-15.94,-5.72,2019-06-30T16:25:36Z,70.58,75,69,24.36
36,Cabo San Lucas,MX,22.89,-109.91,2019-06-30T16:26:00Z,95.0,66,5,8.05
37,Khaniotis,GR,40.0,23.58,2019-06-30T16:27:58Z,79.0,56,0,1.99
38,Longyearbyen,SJ,78.22,15.64,2019-06-30T16:27:58Z,42.8,70,75,23.04
39,Kodiak,US,39.95,-94.76,2019-06-30T16:27:58Z,89.6,66,1,8.05
40,Qaanaaq,GL,77.48,-69.36,2019-06-30T16:27:58Z,49.52,43,58,4.25
41,Busselton,AU,-33.64,115.35,2019-06-30T16:27:59Z,52.0,72,28,16.67
42,East London,ZA,-33.02,27.91,2019-06-30T16:27:59Z,66.2,68,0,10.29
43,Cape Town,ZA,-33.93,18.42,2019-06-30T16:27:05Z,57.0,76,90,20.8
44,Boden,SE,65.83,21.69,2019-06-30T16:27:59Z,53.6,58,0,12.75
45,Campos Altos,BR,-19.7,-46.17,2019-06-30T16:27:59Z,74.0,48,0,5.91
46,Redmond,US,47.67,-122.12,2019-06-30T16:27:11Z,66.99,63,20,3.36
47,Noyabrsk,RU,63.2,75.45,2019-06-30T16:27:59Z,68.06,50,73,4.52
48,Coahuayana,MX,18.62,-100.35,2019-06-30T16:27:59Z,70.94,92,100,2.24
49,Hadejia,NG,12.45,10.04,2019-06-30T16:28:53Z,102.98,21,96,6.35
50,Dhrol,IN,22.57,70.42,2019-06-30T16:28:53Z,89.6,62,40,16.11
51,Hobart,AU,-42.88,147.33,2019-06-30T16:27:29Z,57.2,50,75,11.41
52,Boca do Acre,BR,-8.76,-67.39,2019-06-30T16:28:53Z,92.36,47,0,0.31
53,Punta Arenas,CL,-53.16,-70.91,2019-06-30T16:28:53Z,32.0,74,0,13.87
54,Vaini,TO,-21.2,-175.2,2019-06-30T16:28:53Z,71.6,94,90,12.75
55,Atar,MR,20.52,-13.05,2019-06-30T16:28:54Z,113.06,7,0,16.46
56,Slave Lake,CA,55.28,-114.77,2019-06-30T16:28:54Z,60.8,72,40,14.99
57,Khatanga,RU,71.98,102.47,2019-06-30T16:28:54Z,58.16,61,57,14.94
58,New Norfolk,AU,-42.78,147.06,2019-06-30T16:28:54Z,57.2,50,40,14.99
59,Shelburne,CA,44.08,-80.2,2019-06-30T16:25:17Z,72.0,68,20,12.75
60,Yellowknife,CA,62.45,-114.38,2019-06-30T16:28:54Z,53.6,50,20,19.46
61,Saint-Philippe,RE,-21.36,55.77,2019-06-30T16:28:54Z,71.6,64,0,18.34
62,College,US,64.86,-147.8,2019-06-30T16:28:54Z,70.0,68,75,0.74
63,Bluff,NZ,-46.6,168.33,2019-06-30T16:28:55Z,44.01,79,100,5.99
64,Hilo,US,19.71,-155.08,2019-06-30T16:28:55Z,69.01,77,1,8.05
65,Chokurdakh,RU,70.62,147.9,2019-06-30T16:28:55Z,40.7,76,26,8.59
66,Cartagena,CO,5.03,-75.64,2019-06-30T16:28:55Z,78.8,69,40,2.24
67,Mahebourg,MU,-20.41,57.7,2019-06-30T16:28:55Z,71.6,60,20,17.22
68,Cherskiy,RU,68.75,161.3,2019-06-30T16:28:55Z,37.64,93,100,7.4
69,Hermanus,ZA,-34.42,19.24,2019-06-30T16:28:56Z,59.0,64,0,1.99
70,Marsala,IT,37.8,12.44,2019-06-30T16:28:56Z,84.99,88,0,11.41
71,Mar del Plata,AR,-46.43,-67.52,2019-06-30T16:28:56Z,34.04,57,0,16.2
72,Avarua,CK,-21.21,-159.78,2019-06-30T16:25:10Z,71.6,60,88,9.17
73,Camopi,GF,3.17,-52.33,2019-06-30T16:28:56Z,78.86,95,63,2.91
74,Quito,EC,-0.22,-78.51,2019-06-30T16:26:34Z,68.0,34,40,5.82
75,Oistins,BB,13.07,-59.53,2019-06-30T16:28:56Z,87.8,66,75,26.4
76,Provideniya,RU,64.42,-173.23,2019-06-30T16:28:56Z,42.14,97,100,7.67
77,Zhangjiakou,CN,40.77,114.88,2019-06-30T16:28:57Z,56.18,56,0,6.91
78,Kruisfontein,ZA,-34.0,24.73,2019-06-30T16:28:57Z,62.48,51,47,5.23
79,Dufftown,GB,57.45,-3.13,2019-06-30T16:28:57Z,66.2,63,75,23.04
80,Marienburg,SR,5.88,-55.04,2019-06-30T16:28:57Z,82.4,83,75,9.17
81,Adrar,DZ,27.87,-0.29,2019-06-30T16:28:57Z,113.0,5,0,6.93
82,Meulaboh,ID,4.14,96.13,2019-06-30T16:28:57Z,85.34,62,0,3.31
83,Palmer,US,61.6,-149.11,2019-06-30T16:28:57Z,66.0,77,1,4.7
84,Hovd,MN,48.01,91.64,2019-06-30T16:28:58Z,69.32,37,41,5.48
85,Georgetown,SH,-7.93,-14.42,2019-06-30T16:28:58Z,75.98,80,79,22.7
86,Saldanha,ZA,-33.01,17.94,2019-06-30T16:28:58Z,55.4,82,97,21.92
87,Ilulissat,GL,69.22,-51.1,2019-06-30T16:28:58Z,39.2,80,75,8.05
88,Ketchikan,US,55.34,-131.65,2019-06-30T16:28:58Z,57.2,87,90,8.05
89,Hamilton,BM,32.3,-64.78,2019-06-30T16:28:58Z,80.6,78,75,12.75
90,Kibara,TZ,-2.15,33.45,2019-06-30T16:28:58Z,75.08,65,50,10.25
91,Souillac,MU,-20.52,57.52,2019-06-30T16:28:59Z,71.6,60,20,17.22
92,Butaritari,KI,3.07,172.79,2019-06-30T16:28:59Z,82.82,70,100,5.3
93,Baruun-Urt,MN,46.68,113.28,2019-06-30T16:28:59Z,54.92,68,61,1.77
94,Kununurra,AU,-15.77,128.74,2019-06-30T16:28:59Z,64.4,77,93,3.36
95,Astoria,US,46.19,-123.83,2019-06-30T16:28:59Z,64.0,77,75,3.36
96,Souris,CA,46.36,-62.25,2019-06-30T16:28:59Z,60.01,100,90,10.29
97,Demba,CD,-5.47,22.27,2019-06-30T16:29:00Z,95.42,17,0,1.86
98,Rocha,UY,-34.48,-54.34,2019-06-30T16:29:00Z,52.58,82,100,13.44
99,Lompoc,US,34.64,-120.46,2019-06-30T16:27:54Z,68.0,87,90,3.36
100,Puerto Madero,MX,14.72,-92.42,2019-06-30T16:29:00Z,75.2,94,90,2.53
101,Davenda,RU,53.56,119.32,2019-06-30T16:29:53Z,53.84,87,99,3.6
102,Turukhansk,RU,65.8,87.96,2019-06-30T16:29:53Z,59.96,59,64,10.96
103,Isla Vista,US,34.41,-119.86,2019-06-30T16:24:56Z,78.01,82,1,5.82
104,Barrow,US,39.51,-90.4,2019-06-30T16:29:53Z,88.0,66,1,5.82
105,Khuzhir,RU,53.19,107.35,2019-06-30T16:29:53Z,57.44,50,0,4.25
106,Arraial do Cabo,BR,-22.97,-42.02,2019-06-30T16:29:53Z,86.0,42,0,9.17
107,Zhigansk,RU,66.77,123.37,2019-06-30T16:29:54Z,58.88,47,20,4.21
108,Ponta do Sol,CV,17.2,-25.09,2019-06-30T16:29:54Z,84.2,54,20,20.8
109,Kaitangata,NZ,-46.28,169.85,2019-06-30T16:29:54Z,37.99,88,100,4.0
110,Kalabo,ZM,-15.0,22.67,2019-06-30T16:29:54Z,80.12,19,1,2.91
111,Zarubino,RU,42.65,131.06,2019-06-30T16:29:54Z,53.48,98,93,3.18
112,Oriximina,BR,-1.77,-55.87,2019-06-30T16:29:54Z,87.5,58,100,7.58
113,Parintins,BR,-2.63,-56.73,2019-06-30T16:29:54Z,85.7,71,99,4.99
114,Pevek,RU,69.7,170.27,2019-06-30T16:29:55Z,31.88,97,100,9.35
115,Ulagan,RU,50.63,87.96,2019-06-30T16:29:55Z,44.66,93,99,5.48
116,Dwarka,IN,28.58,77.04,2019-06-30T16:29:55Z,104.0,33,75,5.82
117,Kloulklubed,PW,7.04,134.26,2019-06-30T16:29:55Z,78.8,83,75,4.7
118,Douglas,US,31.51,-82.85,2019-06-30T16:29:55Z,86.0,69,75,5.82
119,Narsaq,GL,60.91,-46.05,2019-06-30T16:29:55Z,53.6,54,40,9.17
120,Nikolskoye,RU,59.7,30.79,2019-06-30T16:29:55Z,68.0,52,0,8.95
121,Portland,AU,-33.35,149.98,2019-06-30T16:29:56Z,42.01,54,47,8.01
122,Jacmel,HT,18.24,-72.54,2019-06-30T16:29:56Z,93.2,46,20,14.99
123,Wanning,CN,18.8,110.4,2019-06-30T16:29:56Z,75.8,97,100,3.44
124,Luderitz,NA,-26.65,15.16,2019-06-30T16:29:56Z,57.2,82,73,16.11
125,Yakeshi,CN,49.28,120.73,2019-06-30T16:29:56Z,58.34,59,44,3.69
126,Conceicao do Mato Dentro,BR,-19.04,-43.42,2019-06-30T16:29:56Z,68.96,71,98,2.42
127,Benghazi,LY,32.12,20.07,2019-06-30T16:29:12Z,81.38,50,0,28.7
128,Severo-Kurilsk,RU,50.68,156.12,2019-06-30T16:29:56Z,43.04,88,2,4.72
129,Jhinjhana,IN,29.52,77.22,2019-06-30T16:29:57Z,101.54,18,17,8.41
130,Port Hope,CA,43.95,-78.29,2019-06-30T16:29:15Z,73.0,60,75,14.99
131,Constitucion,MX,23.99,-104.67,2019-06-30T16:29:57Z,73.0,43,20,3.36
132,Kahului,US,20.89,-156.47,2019-06-30T16:29:57Z,73.4,83,40,7.38
133,Ancud,CL,-41.87,-73.83,2019-06-30T16:29:57Z,42.8,81,0,2.24
134,Sumbe,AO,-11.2,13.84,2019-06-30T16:29:57Z,69.8,84,40,13.87
135,Sinnamary,GF,5.38,-52.96,2019-06-30T16:29:57Z,76.7,87,97,14.79
136,Rio de Janeiro,BR,-22.91,-43.21,2019-06-30T16:28:47Z,93.2,58,0,8.05
137,Margate,ZA,-30.86,30.37,2019-06-30T16:26:16Z,70.4,38,0,10.38
138,Loknya,RU,54.21,39.24,2019-06-30T16:29:58Z,68.0,43,68,1.99
139,Thinadhoo,MV,0.53,72.93,2019-06-30T16:29:58Z,84.26,77,86,11.63
140,Muli,MV,2.92,73.57,2019-06-30T16:29:58Z,84.08,75,70,12.53
141,Ranong,TH,9.96,98.62,2019-06-30T16:29:58Z,80.6,94,40,3.36
142,Isangel,VU,-19.55,169.27,2019-06-30T16:29:58Z,74.0,74,0,12.66
143,Haines Junction,CA,60.75,-137.51,2019-06-30T16:29:58Z,62.3,60,63,1.14
144,Chuy,UY,-33.69,-53.46,2019-06-30T16:29:58Z,55.46,78,67,17.36
145,Grindavik,IS,63.84,-22.43,2019-06-30T16:29:59Z,60.8,50,75,11.41
146,Stanghelle,NO,60.55,5.74,2019-06-30T16:29:59Z,57.99,93,75,10.29
147,Le Port,RE,-20.94,55.29,2019-06-30T16:28:32Z,71.6,64,0,11.41
148,Thompson,CA,55.74,-97.86,2019-06-30T16:29:59Z,66.2,68,75,12.75
149,Sitka,US,37.17,-99.65,2019-06-30T16:29:59Z,82.0,67,74,14.0
150,Cockburn Town,TC,21.46,-71.14,2019-06-30T16:29:59Z,82.1,79,45,18.41
151,Naze,JP,28.37,129.48,2019-06-30T16:29:59Z,80.6,100,90,12.75
152,Yilan,CN,43.11,129.52,2019-06-30T16:30:00Z,52.58,98,22,1.92
153,Victoria,SC,-4.62,55.45,2019-06-30T16:30:00Z,78.8,88,75,21.92
154,Axim,GH,4.87,-2.24,2019-06-30T16:30:53Z,77.48,86,2,10.45
155,Pochutla,MX,15.74,-96.47,2019-06-30T16:30:53Z,91.0,58,90,5.35
156,Myre,NO,69.1,15.95,2019-06-30T16:30:53Z,52.0,75,20,5.82
157,Sanandaj,IR,35.31,47.0,2019-06-30T16:30:53Z,87.8,14,0,11.41
158,Bambous Virieux,MU,-20.34,57.76,2019-06-30T16:30:53Z,71.6,60,20,17.22
159,Caborca,MX,30.58,-111.1,2019-06-30T16:30:54Z,96.01,33,26,4.0
160,Vestmannaeyjar,IS,63.44,-20.27,2019-06-30T16:30:54Z,51.8,87,40,9.17
161,Champerico,GT,14.3,-91.92,2019-06-30T16:30:54Z,86.0,70,75,4.59
162,Tasiilaq,GL,65.61,-37.64,2019-06-30T16:30:54Z,46.4,70,90,19.46
163,Carnarvon,AU,-24.87,113.63,2019-06-30T16:30:54Z,57.2,82,75,4.7
164,Mandaguacu,BR,-23.35,-52.1,2019-06-30T16:27:39Z,80.6,51,0,13.87
165,Normandin,CA,48.84,-72.53,2019-06-30T16:30:54Z,71.6,60,20,6.93
166,Karoi,ZW,-16.82,29.68,2019-06-30T16:30:54Z,58.22,55,0,6.06
167,Sao Joao da Barra,BR,-21.64,-41.05,2019-06-30T16:30:55Z,84.2,48,20,5.82
168,Katsuura,JP,33.93,134.5,2019-06-30T16:30:55Z,75.2,94,75,1.12
169,Alice Springs,AU,-23.7,133.88,2019-06-30T16:26:44Z,39.2,48,0,9.13
170,Bethel,US,60.79,-161.76,2019-06-30T16:30:55Z,55.4,81,90,11.41
171,Ust-Nera,RU,64.57,143.24,2019-06-30T16:30:55Z,48.32,54,38,4.32
172,Hami,CN,42.84,93.51,2019-06-30T16:30:55Z,84.86,19,26,13.0
173,Araouane,ML,18.9,-3.53,2019-06-30T16:30:55Z,105.56,16,65,10.71
174,Mount Isa,AU,-20.73,139.49,2019-06-30T16:30:56Z,59.0,30,0,10.29
175,Verkhoturye,RU,58.86,60.81,2019-06-30T16:30:56Z,68.12,73,99,8.95
176,Ust-Omchug,RU,61.13,149.63,2019-06-30T16:30:56Z,44.36,85,93,3.4
177,Ardakan,IR,32.31,54.02,2019-06-30T16:30:56Z,102.2,11,20,2.24
178,Nosy Varika,MG,-20.58,48.53,2019-06-30T16:30:56Z,68.48,77,33,0.51
179,Cayenne,GF,4.94,-52.33,2019-06-30T16:29:29Z,78.8,83,54,9.17
180,Sorland,NO,67.67,12.69,2019-06-30T16:30:56Z,50.0,66,20,6.93
181,Lehututu,BW,-23.92,21.83,2019-06-30T16:30:56Z,62.72,25,0,12.03
182,Honiara,SB,-9.43,159.96,2019-06-30T16:30:57Z,77.0,94,75,2.24
183,Kodinsk,RU,58.6,99.18,2019-06-30T16:30:57Z,68.48,54,0,0.78
184,Norman Wells,CA,65.28,-126.83,2019-06-30T16:30:57Z,51.8,71,90,8.05
185,Tazovskiy,RU,67.47,78.7,2019-06-30T16:30:57Z,50.12,54,0,5.57
186,Suluq,LY,31.67,20.25,2019-06-30T16:30:57Z,79.1,51,0,26.91
187,Huarmey,PE,-10.07,-78.15,2019-06-30T16:30:57Z,64.16,86,68,14.07
188,Hobyo,SO,5.35,48.53,2019-06-30T16:30:58Z,80.36,67,55,26.26
189,Qazvin,IR,36.28,50.01,2019-06-30T16:30:58Z,84.2,42,0,9.17
190,Pesochenskiy,RU,54.17,36.11,2019-06-30T16:30:58Z,66.2,55,40,15.66
191,Camacha,PT,33.08,-16.33,2019-06-30T16:30:58Z,73.4,60,75,13.87
192,Touba,CI,8.28,-7.68,2019-06-30T16:30:58Z,77.12,92,85,2.44
193,Morwell,AU,-38.24,146.4,2019-06-30T16:30:58Z,50.0,68,27,5.99
194,Dehloran,IR,32.69,47.27,2019-06-30T16:30:58Z,85.4,18,0,8.21
195,Saskylakh,RU,71.97,114.09,2019-06-30T16:30:59Z,53.18,73,2,14.18
196,Sao Paulo de Olivenca,BR,-3.38,-68.87,2019-06-30T16:30:59Z,89.36,58,75,1.81
197,Daru,PG,-9.07,143.21,2019-06-30T16:30:59Z,73.16,86,79,7.87
198,Henties Bay,NA,-22.12,14.28,2019-06-30T16:30:59Z,61.0,80,18,1.99
199,Tiksi,RU,71.64,128.87,2019-06-30T16:30:59Z,39.32,76,100,10.6
200,Canutama,BR,-6.53,-64.38,2019-06-30T16:30:59Z,94.76,37,16,4.32
201,Srednekolymsk,RU,67.46,153.71,2019-06-30T16:30:59Z,52.64,63,94,5.12
202,Iquitos,PE,-3.75,-73.25,2019-06-30T16:31:00Z,42.8,319,75,5.82
203,Esso,RU,55.93,158.7,2019-06-30T16:31:00Z,42.74,84,100,1.43
204,Thrissur,IN,10.53,76.21,2019-06-30T16:31:00Z,82.4,88,40,9.19
205,Molteno,ZA,-31.4,26.36,2019-06-30T16:31:00Z,57.86,30,54,13.33
206,Port Lincoln,AU,-34.72,135.86,2019-06-30T16:31:00Z,58.4,70,51,26.51
207,Taoudenni,ML,22.68,-3.98,2019-06-30T16:31:00Z,99.8,18,79,24.85
208,Vytegra,RU,61.01,36.45,2019-06-30T16:31:00Z,54.44,67,64,5.28
209,Lavrentiya,RU,65.58,-170.99,2019-06-30T16:31:53Z,42.56,95,100,9.55
210,Marystown,CA,47.17,-55.16,2019-06-30T16:31:53Z,58.4,72,96,4.43
211,Vanavara,RU,60.35,102.28,2019-06-30T16:31:53Z,67.22,63,0,3.69
212,Zaysan,KZ,47.47,84.87,2019-06-30T16:31:53Z,54.62,57,0,7.76
213,Miyako,JP,33.63,130.94,2019-06-30T16:31:53Z,73.4,83,75,4.7
214,Lac du Bonnet,CA,50.25,-96.06,2019-06-30T16:31:53Z,84.0,56,0,12.75
215,Saint George,BM,32.38,-64.68,2019-06-30T16:31:54Z,80.6,78,75,12.75
216,Bourail,NC,-21.57,165.5,2019-06-30T16:31:54Z,62.36,96,21,1.74
217,Chapais,CA,49.78,-74.86,2019-06-30T16:31:54Z,66.2,72,40,6.93
218,Hirara,JP,24.8,125.28,2019-06-30T16:31:54Z,83.6,87,66,16.04
219,Amriswil,CH,47.55,9.3,2019-06-30T16:31:54Z,95.0,30,0,6.93
220,Sharya,RU,58.37,45.52,2019-06-30T16:30:17Z,49.94,98,89,3.83
221,San Pedro,BZ,17.92,-87.97,2019-06-30T16:31:54Z,78.8,100,75,6.93
222,Abashiri,JP,44.01,144.25,2019-06-30T16:31:55Z,53.9,87,45,5.57
223,Lorengau,PG,-2.02,147.27,2019-06-30T16:31:55Z,78.38,84,8,4.85
224,Takoradi,GH,4.89,-1.75,2019-06-30T16:31:55Z,77.3,83,31,6.82
225,Khorinsk,RU,52.16,109.78,2019-06-30T16:31:55Z,50.3,77,13,1.99
226,Talnakh,RU,69.49,88.39,2019-06-30T16:31:55Z,55.4,66,0,6.71
227,Banda Aceh,ID,5.56,95.32,2019-06-30T16:29:48Z,84.8,75,43,19.1
228,Ondjiva,AO,-17.07,15.73,2019-06-30T16:31:55Z,84.2,17,0,5.82
229,Dakar,SN,14.69,-17.45,2019-06-30T16:30:47Z,84.2,74,0,10.29
230,Suntar,RU,62.16,117.65,2019-06-30T16:31:55Z,72.44,47,48,6.02
231,Altamira,BR,-3.2,-52.21,2019-06-30T16:31:30Z,91.4,52,40,5.82
232,Shingu,JP,33.72,135.99,2019-06-30T16:31:56Z,68.3,99,100,3.22
233,Guerrero Negro,MX,27.97,-114.04,2019-06-30T16:31:56Z,68.66,77,0,16.89
234,Barra Patuca,HN,15.8,-84.28,2019-06-30T16:31:56Z,83.78,77,62,14.74
235,Nikolayevsk-na-amure,RU,53.14,140.72,2019-06-30T16:31:56Z,52.46,77,2,2.86
236,Betong,TH,5.77,101.07,2019-06-30T16:31:56Z,71.72,98,74,0.83
237,Kudat,MY,6.89,116.84,2019-06-30T16:31:56Z,82.0,83,75,3.36
238,Devils Lake,US,48.11,-98.87,2019-06-30T16:31:56Z,77.0,41,1,3.36
239,Abnub,EG,27.27,31.15,2019-06-30T16:31:57Z,98.6,25,0,20.8
240,Oda,JP,35.19,132.5,2019-06-30T16:31:57Z,71.18,91,76,13.6
241,Pampa,US,35.54,-100.96,2019-06-30T16:27:34Z,89.6,38,1,6.93
242,Pulaski,US,37.05,-80.78,2019-06-30T16:31:57Z,87.01,65,40,18.34
243,Fairbanks,US,64.84,-147.72,2019-06-30T16:31:57Z,69.01,68,75,2.39
244,Grand Gaube,MU,-20.01,57.66,2019-06-30T16:31:57Z,71.6,60,20,17.22
245,Clyde River,CA,70.47,-68.59,2019-06-30T16:31:57Z,44.6,70,5,6.93
246,Makakilo City,US,21.35,-158.09,2019-06-30T16:31:58Z,77.0,78,20,4.7
247,Kupang,ID,-10.16,123.6,2019-06-30T16:31:58Z,77.0,65,75,10.29
248,Kailua,US,21.39,-157.74,2019-06-30T16:31:58Z,77.0,83,75,5.82
249,Jieshi,CN,22.82,115.83,2019-06-30T16:31:58Z,80.9,86,61,2.48
250,Biak,ID,-0.91,122.88,2019-06-30T16:31:58Z,62.54,98,84,4.03
251,Mirnyy,RU,56.57,36.46,2019-06-30T16:31:58Z,57.14,84,6,3.58
252,Ampanihy,MG,-24.69,44.75,2019-06-30T16:31:58Z,72.62,74,0,6.35
253,Shimoda,JP,34.7,138.93,2019-06-30T16:31:59Z,77.0,94,100,1.01
254,Teahupoo,PF,-17.83,-149.27,2019-06-30T16:31:59Z,73.4,69,75,6.93
255,Anadyr,RU,64.73,177.51,2019-06-30T16:31:59Z,51.8,81,40,4.47
256,Horta,PT,40.42,-8.49,2019-06-30T16:31:59Z,70.0,82,75,11.41
257,Santiago de Cao,PE,-7.96,-79.24,2019-06-30T16:31:59Z,66.2,82,20,10.29
258,Behshahr,IR,36.69,53.54,2019-06-30T16:31:59Z,80.6,83,75,4.7
259,Boddam,GB,57.47,-1.78,2019-06-30T16:31:59Z,66.2,55,40,20.8
260,Umm Kaddadah,SD,13.6,26.69,2019-06-30T16:31:59Z,92.6,34,15,16.55
261,Puerto Escondido,MX,15.86,-97.07,2019-06-30T16:32:00Z,87.8,62,75,9.17
262,Nipawin,CA,53.36,-104.02,2019-06-30T16:32:28Z,66.2,68,1,18.34
263,Kulhudhuffushi,MV,6.62,73.07,2019-06-30T16:32:53Z,83.96,77,100,11.99
264,Breyten,ZA,-26.3,29.99,2019-06-30T16:32:53Z,49.94,30,20,3.83
265,Anyang,CN,36.1,114.34,2019-06-30T16:32:53Z,73.7,26,0,2.42
266,Rafaela,AR,-31.25,-61.49,2019-06-30T16:32:53Z,53.01,73,0,10.0
267,Shankargarh,IN,25.19,81.61,2019-06-30T16:32:53Z,99.26,28,34,3.02
268,Komsomolskiy,RU,67.55,63.78,2019-06-30T16:32:54Z,58.4,88,58,16.37
269,Vila do Maio,CV,15.13,-23.22,2019-06-30T16:32:54Z,84.2,51,20,17.22
270,Ostrovnoy,RU,68.05,39.51,2019-06-30T16:32:54Z,43.46,68,100,21.03
271,Sola,VU,-13.88,167.55,2019-06-30T16:32:54Z,78.2,77,95,12.88
272,Katherine,AU,-14.47,132.26,2019-06-30T16:32:54Z,68.0,64,0,4.7
273,Cap Malheureux,MU,-19.98,57.61,2019-06-30T16:31:03Z,71.6,60,20,17.22
274,Alta,NO,69.97,23.27,2019-06-30T16:29:06Z,53.6,50,0,6.93
275,Touros,BR,-5.2,-35.46,2019-06-30T16:32:55Z,78.8,83,75,16.11
276,Paralimni,CY,35.04,33.98,2019-06-30T16:28:08Z,91.4,70,20,10.29
277,Benalla,AU,-36.55,145.99,2019-06-30T16:32:55Z,50.0,87,90,6.93
278,Vagay,RU,57.94,69.02,2019-06-30T16:32:55Z,58.76,95,56,5.21
279,Faanui,PF,-16.48,-151.75,2019-06-30T16:32:55Z,76.4,76,78,23.71
280,Nanortalik,GL,60.14,-45.24,2019-06-30T16:32:55Z,39.86,79,8,7.99
281,Ontario,US,34.07,-117.65,2019-06-30T16:32:55Z,82.0,38,1,4.7
282,Sur,OM,22.57,59.53,2019-06-30T16:32:55Z,90.44,51,6,12.57
283,Wageningen,SR,5.77,-56.69,2019-06-30T16:32:56Z,81.8,75,8,11.43
284,Kavaratti,IN,10.57,72.64,2019-06-30T16:32:56Z,83.6,76,100,16.62
285,San Patricio,MX,19.22,-104.7,2019-06-30T16:32:56Z,84.2,74,75,6.93
286,Bredasdorp,ZA,-34.53,20.04,2019-06-30T16:32:56Z,60.8,77,0,4.7
287,Basco,PH,20.45,121.97,2019-06-30T16:32:56Z,85.4,74,2,1.81
288,Mvangue,CM,2.97,11.5,2019-06-30T16:32:56Z,70.1,97,100,4.97
289,Mount Gambier,AU,-37.83,140.78,2019-06-30T16:31:39Z,56.96,79,86,30.47
290,Manakara,MG,-22.14,48.01,2019-06-30T16:32:56Z,66.14,86,12,2.55
291,Caluquembe,AO,-13.78,14.68,2019-06-30T16:32:57Z,62.36,35,0,3.13
292,Ussel,FR,45.55,2.31,2019-06-30T16:32:57Z,84.0,68,0,1.01
293,Hollola,FI,60.99,25.5,2019-06-30T16:32:57Z,72.0,45,78,5.06
294,Marawi,SD,18.48,31.82,2019-06-30T16:32:57Z,99.44,11,0,11.25
295,San Andres,CO,8.22,-76.58,2019-06-30T16:32:57Z,82.4,78,75,11.41
296,Pisco,PE,-13.71,-76.2,2019-06-30T16:32:57Z,71.6,30,90,11.41
297,Lucea,JM,18.44,-78.17,2019-06-30T16:32:57Z,91.4,59,20,23.04
298,Lalmohan,BD,22.34,90.74,2019-06-30T16:32:58Z,85.4,78,96,11.65
299,Golfito,CR,8.64,-83.17,2019-06-30T16:32:58Z,84.14,72,97,5.55
300,Alvorada,BR,-30.0,-51.08,2019-06-30T16:32:58Z,71.01,100,75,4.7
301,Ngunguru,NZ,-35.62,174.5,2019-06-30T16:32:58Z,57.0,91,41,5.01
302,Port Hedland,AU,-20.31,118.58,2019-06-30T16:32:58Z,59.0,62,79,5.82
303,Kuryk,KZ,43.18,51.68,2019-06-30T16:32:58Z,75.68,54,23,14.32
304,Vilyuysk,RU,63.75,121.63,2019-06-30T16:32:58Z,60.56,54,27,0.83
305,Esperance,AU,-33.86,121.89,2019-06-30T16:32:59Z,51.8,81,73,12.75
306,San Carlos de Bariloche,AR,-41.13,-71.31,2019-06-30T16:32:59Z,39.2,48,20,8.05
307,Peleduy,RU,59.63,112.75,2019-06-30T16:32:59Z,65.6,53,3,2.24
308,Verkhnyaya Maksakovka,RU,61.63,50.97,2019-06-30T16:32:59Z,59.0,93,75,8.95
309,Baraboo,US,43.47,-89.74,2019-06-30T16:32:59Z,82.4,88,90,20.8
310,Alofi,NU,-19.06,-169.92,2019-06-30T16:32:59Z,75.2,78,97,11.41
311,La Asuncion,VE,11.03,-63.86,2019-06-30T16:32:59Z,84.2,70,75,16.84
312,Hokitika,NZ,-42.72,170.96,2019-06-30T16:33:00Z,47.6,78,100,7.87
313,Lensk,RU,60.71,114.91,2019-06-30T16:33:53Z,69.02,51,46,4.34
314,Monrovia,LR,6.33,-10.8,2019-06-30T16:33:53Z,80.6,83,75,9.17
315,Barcelona,PH,12.87,124.14,2019-06-30T16:33:53Z,78.02,87,100,10.42
316,Davila,PH,18.47,120.58,2019-06-30T16:33:53Z,78.8,94,90,11.41
317,Hasaki,JP,35.73,140.83,2019-06-30T16:33:53Z,70.0,100,75,5.82
318,Pimentel,PE,-6.84,-79.94,2019-06-30T16:33:54Z,66.2,29,0,14.99
319,Olmos,PE,-5.99,-79.75,2019-06-30T16:33:54Z,80.9,45,10,13.04
320,Aksarka,RU,66.56,67.8,2019-06-30T16:33:54Z,58.94,89,100,16.35
321,Puerto Ayora,EC,-0.74,-90.35,2019-06-30T16:30:01Z,78.8,65,20,18.34
322,Poddorye,RU,57.47,31.12,2019-06-30T16:33:54Z,63.44,76,40,4.61
323,Carlagan,PH,14.97,122.05,2019-06-30T16:33:54Z,81.98,80,100,11.07
324,Vojka,RS,44.94,20.15,2019-06-30T16:33:54Z,82.4,48,0,4.7
325,Chokwe,MZ,-24.53,32.98,2019-06-30T16:33:54Z,69.2,47,18,4.76
326,Galle,LK,6.04,80.22,2019-06-30T16:33:55Z,83.24,80,98,13.42
327,Nome,US,30.04,-94.42,2019-06-30T16:33:55Z,78.01,78,75,1.57
328,Beisfjord,NO,68.38,17.6,2019-06-30T16:33:55Z,55.4,47,20,5.82
329,Parrita,CR,9.52,-84.33,2019-06-30T16:33:55Z,80.6,65,20,14.99
330,Geraldton,AU,-28.77,114.6,2019-06-30T16:30:56Z,53.6,81,90,5.82
331,Petropavlovsk-Kamchatskiy,RU,53.05,158.65,2019-06-30T16:31:00Z,44.6,93,90,4.47
332,Nawa,SY,32.89,36.04,2019-06-30T16:33:55Z,70.64,77,0,10.36
333,Bom Jesus,BR,-9.08,-44.36,2019-06-30T16:33:55Z,89.18,33,0,7.4
334,Chimoio,MZ,-19.11,33.48,2019-06-30T16:33:56Z,68.0,72,20,8.05
335,Fortuna,US,40.6,-124.16,2019-06-30T16:33:56Z,57.99,87,90,3.36
336,Khonsa,IN,26.99,95.51,2019-06-30T16:33:56Z,71.36,97,91,5.26
337,Killybegs,IE,54.63,-8.45,2019-06-30T16:33:56Z,60.8,67,75,24.16
338,Mangrol,IN,25.33,76.51,2019-06-30T16:33:56Z,89.54,47,98,13.15
339,Caxias,BR,-4.87,-43.35,2019-06-30T16:33:56Z,91.4,43,75,10.29
340,Vostok,RU,46.45,135.83,2019-06-30T16:33:56Z,54.44,99,100,1.19
341,Mezen,RU,65.85,44.24,2019-06-30T16:33:57Z,44.9,86,93,10.67
342,Iskateley,RU,67.68,53.15,2019-06-30T16:33:57Z,60.38,81,37,15.41
343,Bulgan,MN,48.81,103.53,2019-06-30T16:33:57Z,47.24,90,61,1.45
344,Muyuka,CM,4.29,9.41,2019-06-30T16:33:57Z,80.6,88,75,3.36
345,Iaciara,BR,-14.1,-46.63,2019-06-30T16:33:57Z,84.5,35,0,5.3
346,Gorahun,SL,7.46,-11.24,2019-06-30T16:33:57Z,76.22,91,84,5.59
347,Lajedo,BR,-8.66,-36.33,2019-06-30T16:33:57Z,78.56,52,56,15.05
348,Dikson,RU,73.51,80.55,2019-06-30T16:33:58Z,36.98,85,39,10.0
349,Bereznik,RU,62.86,42.71,2019-06-30T16:33:58Z,52.82,85,100,4.56
350,Semnan,IR,35.58,53.39,2019-06-30T16:32:32Z,100.4,11,0,3.74
351,Tshikapa,CD,-6.42,20.79,2019-06-30T16:33:58Z,78.2,27,1,1.57
352,Vanino,RU,53.93,40.55,2019-06-30T16:33:58Z,68.0,43,51,1.99
353,Pula,HR,44.87,13.85,2019-06-30T16:30:44Z,89.01,40,0,4.7
354,Antakya,TR,36.22,36.17,2019-06-30T16:33:58Z,91.4,19,0,16.11
355,Kasongo,CD,-4.43,26.67,2019-06-30T16:33:58Z,81.08,37,12,1.79
356,Puerto del Rosario,ES,28.5,-13.86,2019-06-30T16:33:58Z,75.2,69,75,16.11
357,Manta,EC,-0.95,-80.73,2019-06-30T16:29:04Z,80.6,74,75,5.82
358,Chicama,PE,-7.84,-79.15,2019-06-30T16:33:59Z,66.2,82,20,10.29
359,Ust-Maya,RU,60.42,134.54,2019-06-30T16:33:59Z,54.62,98,100,2.93
360,Raisen,IN,23.33,77.78,2019-06-30T16:33:59Z,78.8,78,75,10.29
361,Williams Lake,CA,52.13,-122.14,2019-06-30T16:33:59Z,55.4,76,75,4.7
362,Tuatapere,NZ,-46.13,167.69,2019-06-30T16:33:59Z,44.01,78,93,4.0
363,Necochea,AR,-38.55,-58.74,2019-06-30T16:33:59Z,50.0,91,73,8.01
364,Tual,ID,-5.67,132.75,2019-06-30T16:34:00Z,78.56,87,89,21.36
365,Bilibino,RU,68.06,166.44,2019-06-30T16:34:00Z,38.6,95,100,5.88
366,Alyangula,AU,-13.85,136.42,2019-06-30T16:34:00Z,71.6,83,0,4.7
367,Inhambane,MZ,-23.87,35.38,2019-06-30T16:34:53Z,73.4,88,20,6.93
368,Husavik,IS,66.04,-17.34,2019-06-30T16:34:53Z,46.4,75,75,21.92
369,Broome,AU,-17.97,122.23,2019-06-30T16:34:53Z,59.0,87,26,7.74
370,Ibague,CO,4.44,-75.23,2019-06-30T16:34:53Z,82.4,58,75,8.05
371,Broken Hill,AU,-31.97,141.45,2019-06-30T16:34:53Z,37.4,61,88,5.82
372,Ust-Tsilma,RU,65.44,52.15,2019-06-30T16:34:54Z,55.52,88,94,7.27
373,Strezhevoy,RU,60.73,77.6,2019-06-30T16:34:54Z,62.6,63,0,2.39
374,Torrington,US,42.06,-104.18,2019-06-30T16:34:54Z,80.6,54,1,6.93
375,Lulea,SE,65.58,22.15,2019-06-30T16:34:54Z,53.6,58,0,12.75
376,Tortoli,IT,39.93,9.66,2019-06-30T16:34:54Z,89.6,46,5,4.7
377,Anamur,TR,36.08,32.84,2019-06-30T16:34:54Z,86.0,55,20,6.93
378,Chernyshevskiy,RU,63.01,112.47,2019-06-30T16:34:54Z,69.02,47,34,2.13
379,Port Antonio,JM,18.18,-76.45,2019-06-30T16:34:55Z,87.8,58,20,26.4
380,Viedma,AR,-40.81,-62.99,2019-06-30T16:34:55Z,46.52,52,54,20.87
381,Santa Maria,CV,16.6,-22.9,2019-06-30T16:34:55Z,82.4,58,20,14.99
382,Dingle,IE,52.14,-10.27,2019-06-30T16:34:55Z,60.8,67,40,23.04
383,La Romana,DO,18.43,-68.97,2019-06-30T16:34:55Z,89.6,55,40,13.87
384,Chimbarongo,CL,-34.71,-71.04,2019-06-30T16:34:55Z,42.8,100,90,6.93
385,Westport,NZ,-41.75,171.6,2019-06-30T16:34:55Z,42.74,84,100,4.45
386,Mana,GF,5.67,-53.78,2019-06-30T16:34:56Z,73.34,98,57,3.4
387,Saint-Augustin,CA,45.63,-73.98,2019-06-30T16:34:56Z,72.0,82,75,11.41
388,La Ronge,CA,55.1,-105.3,2019-06-30T16:34:56Z,59.0,87,90,12.75
389,Karangampel,ID,-6.46,108.44,2019-06-30T16:34:56Z,70.64,84,0,5.12
390,Narok,KE,-1.09,35.87,2019-06-30T16:34:56Z,55.88,95,47,5.93
391,Gimbi,ET,8.81,37.79,2019-06-30T16:34:56Z,57.5,88,60,2.55
392,Deputatskiy,RU,69.3,139.9,2019-06-30T16:34:56Z,48.68,63,0,1.5
393,Lobez,PL,53.64,15.62,2019-06-30T16:34:57Z,95.0,23,0,11.41
394,Oktyabrskiy,RU,55.61,37.97,2019-06-30T16:34:57Z,66.0,68,40,6.71
395,Newport,US,41.49,-71.31,2019-06-30T16:34:57Z,82.4,57,20,11.41
396,Klaksvik,FO,62.23,-6.59,2019-06-30T16:34:57Z,51.8,100,90,6.93
397,Sao Miguel do Araguaia,BR,-13.28,-50.16,2019-06-30T16:34:57Z,92.96,26,9,7.05
398,Tateyama,JP,36.66,137.31,2019-06-30T16:34:57Z,71.01,93,84,5.01
399,Sandakan,MY,5.84,118.12,2019-06-30T16:34:57Z,77.0,94,90,9.17
400,Stephenville,CA,48.55,-58.59,2019-06-30T16:34:58Z,64.4,77,40,9.17
401,Moba,CD,-7.04,29.77,2019-06-30T16:34:58Z,64.34,55,4,3.56
402,Nuuk,GL,64.17,-51.74,2019-06-30T16:34:58Z,42.8,75,75,5.82
403,Jimenez,MX,28.33,-105.4,2019-06-30T16:34:58Z,82.4,32,5,9.17
404,Kanniyakumari,IN,8.08,77.57,2019-06-30T16:34:58Z,81.8,80,100,22.44
405,Comodoro Rivadavia,AR,-45.87,-67.48,2019-06-30T16:34:58Z,41.0,52,40,11.41
406,Los Llanos de Aridane,ES,28.66,-17.92,2019-06-30T16:34:58Z,75.2,64,40,14.99
407,Dharchula,IN,29.85,80.53,2019-06-30T16:34:59Z,59.3,65,40,4.29
408,Yongan,CN,39.7,113.69,2019-06-30T16:34:59Z,61.82,48,7,7.05
409,Brae,GB,60.4,-1.35,2019-06-30T16:34:59Z,55.4,100,95,20.8
410,Sierra Vista,US,31.55,-110.3,2019-06-30T16:34:59Z,93.99,22,90,11.41
411,Padang,ID,-0.92,100.36,2019-06-30T16:34:59Z,81.44,80,40,8.3
412,Andenes,NO,69.31,16.12,2019-06-30T16:34:59Z,46.4,75,20,5.82
413,Cueramaro,MX,20.62,-101.72,2019-06-30T16:34:59Z,69.8,46,20,4.74
414,Hanna,CA,51.64,-111.93,2019-06-30T16:35:00Z,59.0,75,32,7.0
415,Presidencia Roque Saenz Pena,AR,-26.79,-60.44,2019-06-30T16:35:00Z,54.26,90,100,8.81
416,Libenge,CD,3.65,18.64,2019-06-30T16:35:00Z,78.74,73,68,0.47
417,Santa Rosalia,MX,28.71,-111.6,2019-06-30T16:35:00Z,95.0,24,40,6.93
418,Port Keats,AU,-14.25,129.55,2019-06-30T16:35:00Z,72.44,59,0,10.18
419,Semey,KZ,50.41,80.25,2019-06-30T16:35:00Z,59.48,60,0,8.46
420,Acapulco,MX,16.86,-99.88,2019-06-30T16:35:00Z,87.8,58,75,3.36
421,Mbini,GQ,1.58,9.62,2019-06-30T16:35:01Z,78.8,85,40,10.29
422,Imbituba,BR,-28.24,-48.67,2019-06-30T16:34:42Z,84.2,51,0,8.05
423,Kabwe,ZM,-14.44,28.44,2019-06-30T16:35:53Z,59.48,50,0,5.35
424,Conakry,GN,9.52,-13.7,2019-06-30T16:31:21Z,84.2,79,75,11.41
425,Vardo,NO,70.37,31.11,2019-06-30T16:35:53Z,53.6,46,40,11.41
426,Fenoarivo,MG,-18.93,47.44,2019-06-30T16:35:53Z,60.8,72,20,9.17
427,Nyurba,RU,63.29,118.35,2019-06-30T16:35:53Z,67.22,56,59,5.35
428,Coquimbo,CL,-29.95,-71.34,2019-06-30T16:35:53Z,55.4,71,0,10.29
429,Escarcega,MX,18.61,-90.75,2019-06-30T16:31:04Z,87.38,65,84,3.36
430,Pathalgaon,IN,22.56,83.46,2019-06-30T16:35:54Z,77.84,80,79,2.95
431,Bonfim,BR,-20.33,-44.24,2019-06-30T16:35:54Z,80.6,36,20,5.82
432,Havelock,US,34.88,-76.9,2019-06-30T16:35:54Z,99.0,39,1,12.75
433,Biltine,TD,14.53,20.93,2019-06-30T16:35:54Z,102.32,9,14,7.47
434,Tumut,AU,-35.3,148.22,2019-06-30T16:35:54Z,34.46,90,52,2.77
435,Artyom,AZ,40.47,50.33,2019-06-30T16:35:55Z,71.6,73,40,23.04
436,Turayf,SA,31.68,38.65,2019-06-30T16:35:55Z,93.2,23,0,9.17
437,Kathu,TH,7.91,98.33,2019-06-30T16:35:55Z,84.2,66,20,4.7
438,Tartagal,AR,-22.52,-63.8,2019-06-30T16:35:55Z,62.6,88,90,6.93
439,Phan Thiet,VN,10.93,108.1,2019-06-30T16:35:55Z,77.66,81,100,5.88
440,Quatre Cocos,MU,-20.21,57.76,2019-06-30T16:35:55Z,71.6,60,20,17.22
441,Piterka,RU,50.68,47.44,2019-06-30T16:35:56Z,58.94,74,87,11.14
442,Nagarote,NI,12.26,-86.56,2019-06-30T16:35:56Z,86.0,70,40,11.41
443,Kieta,PG,-6.22,155.63,2019-06-30T16:35:56Z,78.74,81,5,5.32
444,South Venice,US,27.05,-82.42,2019-06-30T16:35:56Z,91.99,66,1,8.05
445,Hammerfest,NO,70.66,23.68,2019-06-30T16:33:37Z,44.6,81,75,20.8
446,Yarada,IN,17.65,83.27,2019-06-30T16:35:56Z,84.2,74,75,4.7
447,Kaeo,NZ,-35.1,173.78,2019-06-30T16:35:56Z,57.0,92,72,4.0
448,Zhigalovo,RU,54.81,105.15,2019-06-30T16:35:56Z,58.22,59,52,1.01
449,Boende,CD,-0.28,20.88,2019-06-30T16:35:57Z,81.26,60,23,1.61
450,Kotma,IN,23.2,81.98,2019-06-30T16:35:57Z,86.12,56,63,7.14
451,Torbay,CA,47.66,-52.73,2019-06-30T16:33:32Z,61.0,72,40,9.17
452,Waingapu,ID,-9.65,120.26,2019-06-30T16:35:57Z,67.4,91,52,5.79
453,Copiapo,CL,-27.37,-70.33,2019-06-30T16:35:57Z,55.4,76,90,4.7
454,Kadnikov,RU,59.5,40.34,2019-06-30T16:35:57Z,53.18,90,53,5.12
455,Taguatinga,BR,-15.83,-48.06,2019-06-30T16:35:57Z,77.0,47,20,8.05
456,Tessalit,ML,20.2,1.01,2019-06-30T16:35:58Z,106.64,10,3,6.06
457,Nisia Floresta,BR,-6.09,-35.21,2019-06-30T16:35:58Z,78.8,83,75,16.11
458,San Cristobal,EC,-1.02,-79.44,2019-06-30T16:35:58Z,83.42,63,74,6.71
459,Weihai,CN,37.5,122.11,2019-06-30T16:35:58Z,68.0,47,0,1.99
460,Tadine,NC,-21.55,167.88,2019-06-30T16:35:58Z,72.26,81,0,14.65
461,Ukiah,US,39.15,-123.21,2019-06-30T16:31:40Z,75.99,48,1,5.73
462,Xining,CN,36.62,101.77,2019-06-30T16:35:58Z,47.6,79,75,2.53
463,Beaverlodge,CA,55.21,-119.43,2019-06-30T16:35:58Z,57.2,87,90,8.05
464,Agar,IN,23.71,76.02,2019-06-30T16:35:59Z,82.7,63,86,19.53
465,Sinjai,ID,-5.12,120.25,2019-06-30T16:35:59Z,69.56,98,90,2.53
466,Bongor,TD,10.28,15.37,2019-06-30T16:35:59Z,96.92,33,21,1.9
467,Hamburg,US,42.45,-83.8,2019-06-30T16:35:59Z,84.2,36,1,4.7
468,Paita,PE,-5.09,-81.11,2019-06-30T16:35:59Z,62.6,290,0,19.46
469,Dakoro,NE,14.51,6.76,2019-06-30T16:35:59Z,103.76,19,40,8.59
470,Oltu,TR,40.55,42.0,2019-06-30T16:35:59Z,43.64,93,40,4.94
471,Mumford,GH,5.26,-0.76,2019-06-30T16:36:00Z,76.22,85,38,7.47
472,Pyapon,MM,16.29,95.68,2019-06-30T16:36:00Z,77.3,92,100,6.82
473,Buraydah,SA,26.33,43.97,2019-06-30T16:36:00Z,105.8,15,0,3.36
474,Alfenas,BR,-21.43,-45.95,2019-06-30T16:36:00Z,75.32,54,0,4.99
475,Sioux Lookout,CA,50.1,-91.92,2019-06-30T16:36:00Z,80.6,57,40,5.82
476,Gunnedah,AU,-30.98,150.25,2019-06-30T16:36:00Z,39.2,86,0,4.7
477,Nhulunbuy,AU,-12.18,136.78,2019-06-30T16:36:00Z,73.88,74,18,14.07
478,Nantucket,US,41.28,-70.1,2019-06-30T16:36:00Z,81.0,60,1,13.87
479,Murdochville,CA,48.96,-65.49,2019-06-30T16:32:41Z,60.56,72,100,6.46
480,Goulburn,AU,-34.75,149.72,2019-06-30T16:36:53Z,33.01,95,27,4.63
481,Peruibe,BR,-24.32,-47.0,2019-06-30T16:36:41Z,87.56,43,0,5.57
482,Kysyl-Syr,RU,63.9,122.77,2019-06-30T16:36:53Z,58.04,50,7,2.91
483,Miandrivazo,MG,-19.53,45.46,2019-06-30T16:36:53Z,73.52,77,0,0.89
484,Belaya Gora,RU,68.54,146.19,2019-06-30T16:36:53Z,53.72,52,2,5.17
485,Antalaha,MG,-14.9,50.28,2019-06-30T16:36:53Z,60.38,94,3,2.77
486,Ugoofaaru,MV,5.67,73.0,2019-06-30T16:36:54Z,84.14,75,100,11.18
487,Westport,IE,53.8,-9.52,2019-06-30T16:34:30Z,62.01,72,75,19.46
488,Bandarbeyla,SO,9.49,50.81,2019-06-30T16:36:54Z,83.78,53,87,21.03
489,Sebastian,US,27.82,-80.47,2019-06-30T16:36:54Z,91.0,66,75,8.05
490,Jos,NG,9.92,8.9,2019-06-30T16:36:54Z,74.78,87,100,3.83
491,Nueva Helvecia,UY,-34.28,-57.23,2019-06-30T16:36:54Z,50.0,87,75,10.29
492,Nikolskoye,RU,59.7,30.79,2019-06-30T16:29:55Z,68.0,52,0,8.95
493,Richards Bay,ZA,-28.77,32.06,2019-06-30T16:36:54Z,74.42,66,0,15.59
494,Cooma,AU,-36.24,149.13,2019-06-30T16:36:54Z,24.8,92,0,6.93
495,North Bend,US,43.41,-124.22,2019-06-30T16:36:55Z,60.8,82,40,9.17
496,Arlit,NE,18.74,7.39,2019-06-30T16:36:55Z,107.0,10,15,5.26
497,Hambantota,LK,6.12,81.12,2019-06-30T16:36:55Z,80.6,83,20,4.7
498,Bitung,ID,1.44,125.19,2019-06-30T16:36:55Z,77.0,88,20,3.36
499,Namatanai,PG,-3.66,152.44,2019-06-30T16:36:55Z,78.38,83,15,9.4
500,Aklavik,CA,68.22,-135.01,2019-06-30T16:36:55Z,46.4,75,75,3.36
501,Bilma,NE,18.69,12.92,2019-06-30T16:36:56Z,100.7,10,15,4.81
502,Benton,US,34.56,-92.59,2019-06-30T16:36:56Z,87.01,62,75,3.36
503,Bathsheba,BB,13.22,-59.52,2019-06-30T16:36:56Z,87.8,66,75,26.4
504,Mehamn,NO,71.03,27.85,2019-06-30T16:36:56Z,48.2,57,20,18.34
505,Lages,BR,-27.82,-50.33,2019-06-30T16:36:56Z,73.99,99,58,3.0
506,Sao Filipe,CV,14.9,-24.5,2019-06-30T16:36:56Z,74.42,81,0,23.35
507,Marfino,RU,56.07,37.56,2019-06-30T16:36:56Z,66.0,77,20,8.95
508,Canton,US,40.8,-81.38,2019-06-30T16:36:18Z,84.0,36,1,10.29
509,Rosetown,CA,51.55,-107.99,2019-06-30T16:36:57Z,64.0,63,0,11.01
510,Hervey Bay,AU,-25.3,152.85,2019-06-30T16:36:57Z,57.2,100,2,8.05
511,San Jeronimito,MX,17.55,-101.33,2019-06-30T16:36:57Z,87.8,62,75,12.01
512,Kot Diji,PK,27.34,68.71,2019-06-30T16:36:57Z,100.4,50,5,11.41
513,Atambua,ID,-9.11,124.89,2019-06-30T16:36:57Z,76.4,76,16,8.23
514,Ust-Karsk,RU,52.71,118.82,2019-06-30T16:36:57Z,53.72,94,99,3.15
515,Camocim,BR,-2.9,-40.84,2019-06-30T16:33:11Z,89.36,45,2,7.38
516,Hun,LY,29.13,15.95,2019-06-30T16:36:57Z,87.92,25,0,15.39
517,Bati,ET,11.19,40.02,2019-06-30T16:36:58Z,76.94,44,97,8.77
518,Batticaloa,LK,7.71,81.69,2019-06-30T16:36:58Z,76.76,67,100,2.93
519,Cottonwood Heights,US,40.62,-111.81,2019-06-30T16:36:58Z,82.0,72,90,13.87
520,Luau,AO,-10.71,22.22,2019-06-30T16:36:58Z,67.4,30,0,3.42
521,Kavieng,PG,-2.57,150.8,2019-06-30T16:36:58Z,81.62,75,3,1.39
522,The Valley,AI,18.22,-63.06,2019-06-30T16:36:58Z,87.8,62,20,16.11
523,Joshimath,IN,30.57,79.57,2019-06-30T16:36:58Z,58.22,57,79,5.08
524,Salina,US,36.29,-95.15,2019-06-30T16:36:59Z,87.01,69,40,3.36
525,Vastseliina,EE,57.73,27.29,2019-06-30T16:36:59Z,77.0,44,8,6.71
526,Yerbogachen,RU,61.28,108.01,2019-06-30T16:36:59Z,69.2,53,0,3.04
527,Port Hardy,CA,50.7,-127.42,2019-06-30T16:36:59Z,57.2,87,90,4.7
528,Hanmer Springs,NZ,-42.52,172.83,2019-06-30T16:36:59Z,30.5,87,100,8.79
529,Iqaluit,CA,63.75,-68.52,2019-06-30T16:36:59Z,41.0,86,90,16.11
530,Mogok,MM,22.92,96.51,2019-06-30T16:36:59Z,70.64,95,99,5.97
531,Tahta,EG,26.77,31.5,2019-06-30T16:37:00Z,98.6,19,0,13.87
